{"type": "FeatureCollection", "features": [{"geometry": {"type": "Point", "coordinates": [-40.16, -3.12]}, "type": "Feature", "id": "1", "properties": {"admin": "Ceará", "country": "Brazil", "weight": 1, "city": "Marco"}}, {"geometry": {"type": "Point", "coordinates": [-38.49, -4.1]}, "type": "Feature", "id": "2", "properties": {"admin": "Ceará", "country": "Brazil", "weight": 2, "city": "Horizonte"}}, {"geometry": {"type": "Point", "coordinates": [-49.29, -25.42]}, "type": "Feature", "id": "3", "properties": {"admin": "Paraná", "country": "Brazil", "weight": 1, "city": "Curitiba"}}, {"geometry": {"type": "Point", "coordinates": [-47.89, -22.02]}, "type": "Feature", "id": "4", "properties": {"admin": "São Paulo", "country": "Brazil", "weight": 3, "city": "São Carlos"}}, {"geometry": {"type": "Point", "coordinates": [-43.86, -16.72]}, "type": "Feature", "id": "5", "properties": {"admin": "Minas Gerais", "country": "Brazil", "weight": 1, "city": "Montes Claros"}}, {"geometry": {"type": "Point", "coordinates": [-47.91, -15.78]}, "type": "Feature", "id": "6", "properties": {"admin": "Distrito Federal", "country": "Brazil", "weight": 3, "city": "Brasília"}}, {"geometry": {"type": "Point", "coordinates": [-46.61, -23.69]}, "type": "Feature", "id": "7", "properties": {"admin": "São Paulo", "country": "Brazil", "weight": 2, "city": "Diadema"}}, {"geometry": {"type": "Point", "coordinates": [-34.91, -7.9]}, "type": "Feature", "id": "8", "properties": {"admin": "Pernambuco", "country": "Brazil", "weight": 1, "city": "Paulista"}}, {"geometry": {"type": "Point", "coordinates": [-47.08, -22.91]}, "type": "Feature", "id": "9", "properties": {"admin": "São Paulo", "country": "Brazil", "weight": 4, "city": "Campinas"}}, {"geometry": {"type": "Point", "coordinates": [-51.18, -29.92]}, "type": "Feature", "id": "10", "properties": {"admin": "Rio Grande do Sul", "country": "Brazil", "weight": 1, "city": "Canoas"}}, {"geometry": {"type": "Point", "coordinates": [-48.5, -1.44]}, "type": "Feature", "id": "11", "properties": {"admin": "Pará", "country": "Brazil", "weight": 2, "city": "Belém"}}, {"geometry": {"type": "Point", "coordinates": [-49.35, -18.18]}, "type": "Feature", "id": "12", "properties": {"admin": "Goiás", "country": "Brazil", "weight": 1, "city": "Panamá"}}, {"geometry": {"type": "Point", "coordinates": [-47.9, -22.56]}, "type": "Feature", "id": "13", "properties": {"admin": "São Paulo", "country": "Brazil", "weight": 1, "city": "São Pedro"}}, {"geometry": {"type": "Point", "coordinates": [-46.63, -23.53]}, "type": "Feature", "id": "14", "properties": {"admin": "São Paulo", "country": "Brazil", "weight": 61, "city": "São Paulo"}}, {"geometry": {"type": "Point", "coordinates": [-43.94, -19.92]}, "type": "Feature", "id": "15", "properties": {"admin": "Minas Gerais", "country": "Brazil", "weight": 6, "city": "Belo Horizonte"}}, {"geometry": {"type": "Point", "coordinates": [-42.93, -3.94]}, "type": "Feature", "id": "16", "properties": {"admin": "Maranhão", "country": "Brazil", "weight": 1, "city": "Buriti"}}, {"geometry": {"type": "Point", "coordinates": [-35.28, -6.32]}, "type": "Feature", "id": "17", "properties": {"admin": "Rio Grande do Norte", "country": "Brazil", "weight": 7, "city": "Espírito Santo"}}, {"geometry": {"type": "Point", "coordinates": [-38.59, -3.78]}, "type": "Feature", "id": "18", "properties": {"admin": "Ceará", "country": "Brazil", "weight": 3, "city": "Fortaleza"}}, {"geometry": {"type": "Point", "coordinates": [-49.26, -16.72]}, "type": "Feature", "id": "19", "properties": {"admin": "Goiás", "country": "Brazil", "weight": 2, "city": "Goiânia"}}, {"geometry": {"type": "Point", "coordinates": [-45.27, -22.22]}, "type": "Feature", "id": "20", "properties": {"admin": "Minas Gerais", "country": "Brazil", "weight": 2, "city": "Cristina"}}, {"geometry": {"type": "Point", "coordinates": [-43.13, -22.9]}, "type": "Feature", "id": "21", "properties": {"admin": "Rio de Janeiro", "country": "Brazil", "weight": 1, "city": "Niterói"}}, {"geometry": {"type": "Point", "coordinates": [-49.79, -26.1]}, "type": "Feature", "id": "22", "properties": {"admin": "Paraná", "country": "Brazil", "weight": 1, "city": "Rio Negro"}}, {"geometry": {"type": "Point", "coordinates": [-39.08, -15.29]}, "type": "Feature", "id": "23", "properties": {"admin": "Bahia", "country": "Brazil", "weight": 3, "city": "Una"}}, {"geometry": {"type": "Point", "coordinates": [-47.46, -0.76]}, "type": "Feature", "id": "24", "properties": {"admin": "Pará", "country": "Brazil", "weight": 2, "city": "Maracanã"}}, {"geometry": {"type": "Point", "coordinates": [-47.47, -23.49]}, "type": "Feature", "id": "25", "properties": {"admin": "São Paulo", "country": "Brazil", "weight": 2, "city": "Sorocaba"}}, {"geometry": {"type": "Point", "coordinates": [-34.92, -8.08]}, "type": "Feature", "id": "26", "properties": {"admin": "Pernambuco", "country": "Brazil", "weight": 6, "city": "Recife"}}, {"geometry": {"type": "Point", "coordinates": [-42.13, -11.13]}, "type": "Feature", "id": "27", "properties": {"admin": "Bahia", "country": "Brazil", "weight": 2, "city": "Central"}}, {"geometry": {"type": "Point", "coordinates": [-40.48, -14.67]}, "type": "Feature", "id": "28", "properties": {"admin": "Bahia", "country": "Brazil", "weight": 1, "city": "Planalto"}}, {"geometry": {"type": "Point", "coordinates": [-48.54, -27.6]}, "type": "Feature", "id": "29", "properties": {"admin": "Santa Catarina", "country": "Brazil", "weight": 1, "city": "Florianópolis"}}, {"geometry": {"type": "Point", "coordinates": [-38.5, -12.97]}, "type": "Feature", "id": "30", "properties": {"admin": "Bahia", "country": "Brazil", "weight": 1, "city": "Salvador"}}, {"geometry": {"type": "Point", "coordinates": [-60.02, -3.12]}, "type": "Feature", "id": "31", "properties": {"admin": "Amazonas", "country": "Brazil", "weight": 3, "city": "Manaus"}}, {"geometry": {"type": "Point", "coordinates": [-51.22, -30.04]}, "type": "Feature", "id": "32", "properties": {"admin": "Rio Grande do Sul", "country": "Brazil", "weight": 5, "city": "Porto Alegre"}}, {"geometry": {"type": "Point", "coordinates": [-43.2, -22.91]}, "type": "Feature", "id": "33", "properties": {"admin": "Rio de Janeiro", "country": "Brazil", "weight": 78, "city": "Rio de Janeiro"}}, {"geometry": {"type": "Point", "coordinates": [-41.54, -20.76]}, "type": "Feature", "id": "34", "properties": {"admin": "Espírito Santo", "country": "Brazil", "weight": 1, "city": "Alegre"}}, {"geometry": {"type": "Point", "coordinates": [-44.32, -22.02]}, "type": "Feature", "id": "35", "properties": {"admin": "Minas Gerais", "country": "Brazil", "weight": 1, "city": "Liberdade"}}, {"geometry": {"type": "Point", "coordinates": [-44.26, -2.94]}, "type": "Feature", "id": "36", "properties": {"admin": "Maranhão", "country": "Brazil", "weight": 1, "city": "Rosário"}}, {"geometry": {"type": "Point", "coordinates": [-47.86, -12.55]}, "type": "Feature", "id": "37", "properties": {"admin": "Tocantins", "country": "Brazil", "weight": 1, "city": "Paranã"}}, {"geometry": {"type": "Point", "coordinates": [-34.86, -7.12]}, "type": "Feature", "id": "38", "properties": {"admin": "Paraíba", "country": "Brazil", "weight": 1, "city": "João Pessoa"}}, {"geometry": {"type": "Point", "coordinates": [-47.46, -0.76]}, "type": "Feature", "id": "39", "properties": {"admin": "Para", "country": "Brazil", "weight": 1, "city": "Maracanã"}}, {"geometry": {"type": "Point", "coordinates": [-46.33, -23.95]}, "type": "Feature", "id": "40", "properties": {"admin": "São Paulo", "country": "Brazil", "weight": 2, "city": "Santos"}}, {"geometry": {"type": "Point", "coordinates": [-43.2, -22.91]}, "type": "Feature", "id": "41", "properties": {"admin": "rio de janeiro", "country": "Brazil", "weight": 3, "city": "rio de janeiro"}}, {"geometry": {"type": "Point", "coordinates": [-54.88, -29.18]}, "type": "Feature", "id": "42", "properties": {"admin": "Rio Grande do Sul", "country": "Brazil", "weight": 1, "city": "Santiago"}}]}