{"type": "FeatureCollection", "features": [{"geometry": {"type": "Point", "coordinates": [-67.47, 10.33]}, "type": "Feature", "id": 2, "properties": {"admin": "Aragua", "country": "Venezuela", "weight": "82", "city": "Maracay"}}, {"geometry": {"type": "Point", "coordinates": [-71.66, 10.73]}, "type": "Feature", "id": 3, "properties": {"admin": "Zulia", "country": "Venezuela", "weight": "172", "city": "Maracaibo"}}, {"geometry": {"type": "Point", "coordinates": [-69.3, 10.05]}, "type": "Feature", "id": 11, "properties": {"admin": "Lara", "country": "Venezuela", "weight": "126", "city": "Barquisimeto"}}, {"geometry": {"type": "Point", "coordinates": [-66.85, 10.5]}, "type": "Feature", "id": 13, "properties": {"admin": "Miranda", "country": "Venezuela", "weight": "139", "city": "Chacao"}}, {"geometry": {"type": "Point", "coordinates": [-66.62, 10.47]}, "type": "Feature", "id": 14, "properties": {"admin": "Miranda", "country": "Venezuela", "weight": "33", "city": "Guarenas"}}, {"geometry": {"type": "Point", "coordinates": [-62.06, 9.06]}, "type": "Feature", "id": 15, "properties": {"admin": "Delta Amacuro", "country": "Venezuela", "weight": "3", "city": "Tucupita"}}, {"geometry": {"type": "Point", "coordinates": [-70.25, 8.6]}, "type": "Feature", "id": 16, "properties": {"admin": "Barinas", "country": "Venezuela", "weight": "73", "city": "Barinas"}}, {"geometry": {"type": "Point", "coordinates": [-67.34, 10.23]}, "type": "Feature", "id": 17, "properties": {"admin": "Aragua", "country": "Venezuela", "weight": "10", "city": "La Victoria"}}, {"geometry": {"type": "Point", "coordinates": [-66.53, 10.47]}, "type": "Feature", "id": 18, "properties": {"admin": "Miranda", "country": "Venezuela", "weight": "45", "city": "Guatire"}}, {"geometry": {"type": "Point", "coordinates": [-68.17, 10.47]}, "type": "Feature", "id": 20, "properties": {"admin": "Carabobo", "country": "Venezuela", "weight": "18", "city": "Puerto Cabello"}}, {"geometry": {"type": "Point", "coordinates": [-66.83, 10.52]}, "type": "Feature", "id": 21, "properties": {"admin": "Miranda", "country": "Venezuela", "weight": "49", "city": "Petare"}}, {"geometry": {"type": "Point", "coordinates": [-69.75, 9.05]}, "type": "Feature", "id": 22, "properties": {"admin": "Portuguesa", "country": "Venezuela", "weight": "30", "city": "Guanare"}}, {"geometry": {"type": "Point", "coordinates": [-67.47, 7.9]}, "type": "Feature", "id": 23, "properties": {"admin": "Apure", "country": "Venezuela", "weight": "13", "city": "San Fernando"}}, {"geometry": {"type": "Point", "coordinates": [-67.98, 10.23]}, "type": "Feature", "id": 24, "properties": {"admin": "Carabobo", "country": "Venezuela", "weight": "248", "city": "Valencia"}}, {"geometry": {"type": "Point", "coordinates": [-66.82, 10.44]}, "type": "Feature", "id": 25, "properties": {"admin": "Miranda", "country": "Venezuela", "weight": "25", "city": "El Hatillo"}}, {"geometry": {"type": "Point", "coordinates": [-64.68, 10.17]}, "type": "Feature", "id": 26, "properties": {"admin": "Anzoátegui", "country": "Venezuela", "weight": "65", "city": "Puerto la Cruz"}}, {"geometry": {"type": "Point", "coordinates": [-64.18, 10.45]}, "type": "Feature", "id": 27, "properties": {"admin": "Sucre", "country": "Venezuela", "weight": "54", "city": "Cumaná"}}, {"geometry": {"type": "Point", "coordinates": [-67.02, 10.42]}, "type": "Feature", "id": 28, "properties": {"admin": "Miranda", "country": "Venezuela", "weight": "113", "city": "Los Teques"}}, {"geometry": {"type": "Point", "coordinates": [-67.44, 8.93]}, "type": "Feature", "id": 29, "properties": {"admin": "Guárico", "country": "Venezuela", "weight": "2", "city": "Calabozo"}}, {"geometry": {"type": "Point", "coordinates": [-63.85, 10.96]}, "type": "Feature", "id": 30, "properties": {"admin": "Nueva Esparta", "country": "Venezuela", "weight": "51", "city": "Porlamar"}}, {"geometry": {"type": "Point", "coordinates": [-62.62, 8.37]}, "type": "Feature", "id": 31, "properties": {"admin": "Bolívar", "country": "Venezuela", "weight": "121", "city": "Ciudad Guayana"}}, {"geometry": {"type": "Point", "coordinates": [-71.13, 8.4]}, "type": "Feature", "id": 32, "properties": {"admin": "Mérida", "country": "Venezuela", "weight": "178", "city": "Mérida"}}, {"geometry": {"type": "Point", "coordinates": [-64.72, 10.13]}, "type": "Feature", "id": 33, "properties": {"admin": "Anzoátegui", "country": "Venezuela", "weight": "40", "city": "Barcelona"}}, {"geometry": {"type": "Point", "coordinates": [-69.68, 11.42]}, "type": "Feature", "id": 34, "properties": {"admin": "Falcón", "country": "Venezuela", "weight": "21", "city": "Coro"}}, {"geometry": {"type": "Point", "coordinates": [-63.6, 8.1]}, "type": "Feature", "id": 35, "properties": {"admin": "Bolívar", "country": "Venezuela", "weight": "18", "city": "Ciudad Bolívar"}}, {"geometry": {"type": "Point", "coordinates": [-63.17, 9.75]}, "type": "Feature", "id": 36, "properties": {"admin": "Monagas", "country": "Venezuela", "weight": "28", "city": "Maturín"}}, {"geometry": {"type": "Point", "coordinates": [-72.25, 7.77]}, "type": "Feature", "id": 37, "properties": {"admin": "Táchira", "country": "Venezuela", "weight": "173", "city": "San Cristóbal"}}, {"geometry": {"type": "Point", "coordinates": [-67.03, 10.56]}, "type": "Feature", "id": 38, "properties": {"admin": "Miranda", "country": "Venezuela", "weight": "7", "city": "Catia La Mar"}}, {"geometry": {"type": "Point", "coordinates": [-70.21, 11.72]}, "type": "Feature", "id": 39, "properties": {"admin": "Falcón", "country": "Venezuela", "weight": "21", "city": "Punto Fijo"}}, {"geometry": {"type": "Point", "coordinates": [-66.78, 10.12]}, "type": "Feature", "id": 40, "properties": {"admin": "Miranda", "country": "Venezuela", "weight": "20", "city": "Ocumare del Tuy"}}, {"geometry": {"type": "Point", "coordinates": [-66.66, 10.23]}, "type": "Feature", "id": 41, "properties": {"admin": "Miranda", "country": "Venezuela", "weight": "5", "city": "Santa Teresa"}}, {"geometry": {"type": "Point", "coordinates": [-67.58, 10.19]}, "type": "Feature", "id": 42, "properties": {"admin": "Aragua", "country": "Venezuela", "weight": "3", "city": "Palo Negro"}}, {"geometry": {"type": "Point", "coordinates": [-70.74, 7.24]}, "type": "Feature", "id": 43, "properties": {"admin": "Apure", "country": "Venezuela", "weight": "4", "city": "Guasdualito"}}, {"geometry": {"type": "Point", "coordinates": [-66.83, 10.43]}, "type": "Feature", "id": 44, "properties": {"admin": "Miranda", "country": "Venezuela", "weight": "26", "city": "El Cafetal"}}, {"geometry": {"type": "Point", "coordinates": [-67.89, 10.24]}, "type": "Feature", "id": 45, "properties": {"admin": "Carabobo", "country": "Venezuela", "weight": "9", "city": "Guacara"}}, {"geometry": {"type": "Point", "coordinates": [-66.86, 10.24]}, "type": "Feature", "id": 46, "properties": {"admin": "Miranda", "country": "Venezuela", "weight": "6", "city": "Charallave"}}, {"geometry": {"type": "Point", "coordinates": [-64.26, 8.89]}, "type": "Feature", "id": 47, "properties": {"admin": "Anzoátegui", "country": "Venezuela", "weight": "3", "city": "El Tigre"}}, {"geometry": {"type": "Point", "coordinates": [-62.41, 8.02]}, "type": "Feature", "id": 48, "properties": {"admin": "Bolívar", "country": "Venezuela", "weight": "5", "city": "Upata"}}, {"geometry": {"type": "Point", "coordinates": [-71.23, 8.56]}, "type": "Feature", "id": 49, "properties": {"admin": "Mérida", "country": "Venezuela", "weight": "10", "city": "Ejido"}}, {"geometry": {"type": "Point", "coordinates": [-71.65, 8.63]}, "type": "Feature", "id": 50, "properties": {"admin": "Mérida", "country": "Venezuela", "weight": "8", "city": "El Vigía"}}, {"geometry": {"type": "Point", "coordinates": [-66.99, 10.35]}, "type": "Feature", "id": 51, "properties": {"admin": "Miranda", "country": "Venezuela", "weight": "10", "city": "Carrizal"}}, {"geometry": {"type": "Point", "coordinates": [-66.97, 10.6]}, "type": "Feature", "id": 52, "properties": {"admin": "Vargas", "country": "Venezuela", "weight": "20", "city": "Maiquetía"}}, {"geometry": {"type": "Point", "coordinates": [-67.72, 10.29]}, "type": "Feature", "id": 53, "properties": {"admin": "Carabobo", "country": "Venezuela", "weight": "2", "city": "Mariara"}}, {"geometry": {"type": "Point", "coordinates": [-70.08, 10.19]}, "type": "Feature", "id": 54, "properties": {"admin": "Lara", "country": "Venezuela", "weight": "1", "city": "Carora"}}, {"geometry": {"type": "Point", "coordinates": [-66.74, 10.48]}, "type": "Feature", "id": 55, "properties": {"admin": "Miranda", "country": "Venezuela", "weight": "1", "city": "Caucagüita"}}, {"geometry": {"type": "Point", "coordinates": [-66.75, 10.45]}, "type": "Feature", "id": 56, "properties": {"admin": "Miranda", "country": "Venezuela", "weight": "8", "city": "Filas de Mariche"}}, {"geometry": {"type": "Point", "coordinates": [-66.88, 10.43]}, "type": "Feature", "id": 57, "properties": {"admin": "Miranda", "country": "Venezuela", "weight": "49", "city": "Baruta"}}, {"geometry": {"type": "Point", "coordinates": [-67.48, 10.22]}, "type": "Feature", "id": 58, "properties": {"admin": "Aragua", "country": "Venezuela", "weight": "5", "city": "Turmero"}}, {"geometry": {"type": "Point", "coordinates": [-66.84, 10.52]}, "type": "Feature", "id": 59, "properties": {"admin": "Miranda", "country": "Venezuela", "weight": "2", "city": "Los Dos Caminos"}}, {"geometry": {"type": "Point", "coordinates": [-69.2, 9.58]}, "type": "Feature", "id": 60, "properties": {"admin": "Portuguesa", "country": "Venezuela", "weight": "5", "city": "Acarigua"}}, {"geometry": {"type": "Point", "coordinates": [-69.13, 10.08]}, "type": "Feature", "id": 61, "properties": {"admin": "Yaracuy", "country": "Venezuela", "weight": "1", "city": "Yaritagua"}}, {"geometry": {"type": "Point", "coordinates": [-63.23, 10.67]}, "type": "Feature", "id": 62, "properties": {"admin": "Sucre", "country": "Venezuela", "weight": "10", "city": "Carúpano"}}, {"geometry": {"type": "Point", "coordinates": [-70.62, 9.32]}, "type": "Feature", "id": 63, "properties": {"admin": "Trujillo", "country": "Venezuela", "weight": "6", "city": "Valera"}}, {"geometry": {"type": "Point", "coordinates": [-66.02, 9.21]}, "type": "Feature", "id": 64, "properties": {"admin": "Guárico", "country": "Venezuela", "weight": "1", "city": "Valle de la Pascua"}}, {"geometry": {"type": "Point", "coordinates": [-66.89, 10.61]}, "type": "Feature", "id": 65, "properties": {"admin": "Vargas", "country": "Venezuela", "weight": "10", "city": "La Guaira"}}, {"geometry": {"type": "Point", "coordinates": [-67.17, 10.26]}, "type": "Feature", "id": 66, "properties": {"admin": "Aragua", "country": "Venezuela", "weight": "1", "city": "Las Teyerías"}}, {"geometry": {"type": "Point", "coordinates": [-72.25, 8.22]}, "type": "Feature", "id": 67, "properties": {"admin": "Táchira", "country": "Venezuela", "weight": "1", "city": "La Fría"}}, {"geometry": {"type": "Point", "coordinates": [-69.27, 10.03]}, "type": "Feature", "id": 68, "properties": {"admin": "Lara", "country": "Venezuela", "weight": "19", "city": "Cabudare"}}, {"geometry": {"type": "Point", "coordinates": [-64.37, 9.31]}, "type": "Feature", "id": 69, "properties": {"admin": "Anzoátegui", "country": "Venezuela", "weight": "2", "city": "Cantaura"}}, {"geometry": {"type": "Point", "coordinates": [-72.45, 7.82]}, "type": "Feature", "id": 70, "properties": {"admin": "Táchira", "country": "Venezuela", "weight": "7", "city": "San Antonio del Táchira"}}, {"geometry": {"type": "Point", "coordinates": [-69.63, 9.93]}, "type": "Feature", "id": 71, "properties": {"admin": "Lara", "country": "Venezuela", "weight": "1", "city": "Quíbor"}}, {"geometry": {"type": "Point", "coordinates": [-70.44, 9.38]}, "type": "Feature", "id": 72, "properties": {"admin": "Trujillo", "country": "Venezuela", "weight": "4", "city": "Trujillo"}}, {"geometry": {"type": "Point", "coordinates": [-66.9, 10.17]}, "type": "Feature", "id": 73, "properties": {"admin": "Miranda", "country": "Venezuela", "weight": "11", "city": "Cúa"}}, {"geometry": {"type": "Point", "coordinates": [-67.36, 9.9]}, "type": "Feature", "id": 74, "properties": {"admin": "Guárico", "country": "Venezuela", "weight": "3", "city": "San Juan de los Morros"}}, {"geometry": {"type": "Point", "coordinates": [-67.64, 5.67]}, "type": "Feature", "id": 75, "properties": {"admin": "Amazonas", "country": "Venezuela", "weight": "5", "city": "Puerto Ayacucho"}}, {"geometry": {"type": "Point", "coordinates": [-66.84, 10.62]}, "type": "Feature", "id": 76, "properties": {"admin": "Vargas", "country": "Venezuela", "weight": "3", "city": "Caraballeda"}}, {"geometry": {"type": "Point", "coordinates": [-71.34, 10.26]}, "type": "Feature", "id": 77, "properties": {"admin": "Zulia", "country": "Venezuela", "weight": "14", "city": "Ciudad Ojeda"}}, {"geometry": {"type": "Point", "coordinates": [-71.26, 10.16]}, "type": "Feature", "id": 78, "properties": {"admin": "Zulia", "country": "Venezuela", "weight": "4", "city": "Lagunillas"}}, {"geometry": {"type": "Point", "coordinates": [-68.6, 9.66]}, "type": "Feature", "id": 79, "properties": {"admin": "Cojedes", "country": "Venezuela", "weight": "2", "city": "San Carlos"}}, {"geometry": {"type": "Point", "coordinates": [-67.46, 10.19]}, "type": "Feature", "id": 80, "properties": {"admin": "Aragua", "country": "Venezuela", "weight": "2", "city": "Cagua"}}, {"geometry": {"type": "Point", "coordinates": [-71.51, 10.53]}, "type": "Feature", "id": 81, "properties": {"admin": "Zulia", "country": "Venezuela", "weight": "1", "city": "Santa Rita"}}, {"geometry": {"type": "Point", "coordinates": [-68.31, 9.91]}, "type": "Feature", "id": 82, "properties": {"admin": "Cojedes", "country": "Venezuela", "weight": "1", "city": "Tinaquillo"}}, {"geometry": {"type": "Point", "coordinates": [-66.95, 10.39]}, "type": "Feature", "id": 83, "properties": {"admin": "Miranda", "country": "Venezuela", "weight": "17", "city": "San Antonio de los Altos"}}, {"geometry": {"type": "Point", "coordinates": [-70.42, 8.77]}, "type": "Feature", "id": 84, "properties": {"admin": "Barinas", "country": "Venezuela", "weight": "2", "city": "Barinitas"}}, {"geometry": {"type": "Point", "coordinates": [-63.87, 11.03]}, "type": "Feature", "id": 85, "properties": {"admin": "Nueva Esparta", "country": "Venezuela", "weight": "11", "city": "La Asunción"}}, {"geometry": {"type": "Point", "coordinates": [-71.45, 10.43]}, "type": "Feature", "id": 86, "properties": {"admin": "Zulia", "country": "Venezuela", "weight": "3", "city": "Cabimas"}}, {"geometry": {"type": "Point", "coordinates": [-72.36, 7.71]}, "type": "Feature", "id": 87, "properties": {"admin": "Táchira", "country": "Venezuela", "weight": "8", "city": "Rubio"}}, {"geometry": {"type": "Point", "coordinates": [-72.24, 7.82]}, "type": "Feature", "id": 88, "properties": {"admin": "Táchira", "country": "Venezuela", "weight": "6", "city": "Táriba"}}, {"geometry": {"type": "Point", "coordinates": [-67.63, 10.3]}, "type": "Feature", "id": 89, "properties": {"admin": "Aragua", "country": "Venezuela", "weight": "2", "city": "El Limón"}}, {"geometry": {"type": "Point", "coordinates": [-64.46, 9.44]}, "type": "Feature", "id": 90, "properties": {"admin": "Anzoátegui", "country": "Venezuela", "weight": "1", "city": "Anaco"}}, {"geometry": {"type": "Point", "coordinates": [-64.1, 8.88]}, "type": "Feature", "id": 91, "properties": {"admin": "Anzoátegui", "country": "Venezuela", "weight": "1", "city": "San José de Guanipa"}}, {"geometry": {"type": "Point", "coordinates": [-66.78, 10.48]}, "type": "Feature", "id": 92, "properties": {"admin": "Miranda", "country": "Venezuela", "weight": "2", "city": "La Dolorita"}}]}
